$GPRMC,090229.00,A,0204.23203,S,10604.73355,E,0.014,,250924,,,A*6
!AIVDO,1,1,,,B000000001qILkwe2k003wfTh588,0*6
$GPGGA,090229.00,0204.23203,S,10604.73355,E,1,06,1.71,18.5,M,15.6,M,,*7
$GPGGA,090229.00,0204.23203,S,10604.73355,E,1,06,1.71,18.5,M,15.6,M,,*7C
$GPGGA,090229.00,0204.23203,S,10604.73355,E,1,06,1.71,18.5,M,15.6,M,,*7C
$GPGGA,090229.00,0204.23203,S,10604.73355,E,1,06,1.71,18.5,M,15.6,M,,*7C
$GPGGA,090229.00,0204.23203,S,10604.73355,E,1,06,1.71,18.5,M,15.6,M,,*7C
$GPGGA,090229.00,0204.23203,S,10604.73355,E,1,06,1.71,18.5,M,15.6,M,,*7C
$GPGGA,090229.00,0204.23203,S,10604.73355,E,1,06,1.71,18.5,M,15.6,M,,*7C
$GPGGA,090229.00,0204.23203,S,10604.73355,E,1,06,1.71,18.5,M,15.6,M,,*7C
$GPGGA,090229.00,0204.23203,S,10604.73355,E,1,06,1.71,18.5,M,15.6,M,,*7C
$GPGGA,090229.00,0204.23203,S,10604.73355,E,1,06,1.71,18.5,M,15.6,M,,*7C
$GPGGA,090229.00,0204.23203,S,10604.73355,E,1,06,1.71,18.5,M,15.6,M,,*7C
$GPGGA,090229.00,0204.23203,S,10604.73355,E,1,06,1.71,18.5,M,15.6,M,,*7C
$GPGGA,090229.00,0204.23203,S,10604.73355,E,1,06,1.71,18.5,M,15.6,M,,*7C
$GPGGA,090229.00,0204.23203,S,10604.73355,E,1,06,1.71,18.5,M,15.6,M,,*7C
$GPGGA,090229.00,0204.23203,S,10604.73355,E,1,06,1.71,18.5,M,15.6,M,,*7C
$GPGGA,090229.00,0204.23203,S,10604.73355,E,1,06,1.71,18.5,M,15.6,M,,*7C
$GPGGA,090229.00,0204.23203,S,10604.73355,E,1,06,1.71,18.5,M,15.6,M,,*7C
$GPGGA,090229.00,0204.23203,S,10604.73355,E,1,06,1.71,18.5,M,15.6,M,,*7C
$GPGGA,090229.00,0204.23203,S,10604.73355,E,1,06,1.71,18.5,M,15.6,M,,*7C
$GPGGA,090229.00,0204.23203,S,10604.73355,E,1,06,1.71,18.5,M,15.6,M,,*7C
$GPGGA,090229.00,0204.23203,S,10604.73355,E,1,06,1.71,18.5,M,15.6,M,,*7C
$GPGGA,090229.00,0204.23203,S,10604.73355,E,1,06,1.71,18.5,M,15.6,M,,*7C
$GPRMC,090230.00,A,0204.23200,S,10604.73359,E,0.009,,250924,,,A*6
!AIVDO,1,1,,,B000000001qILkwe2k003wg4h588,0*0
!AIVDO,1,1,,,B000000001qILkwe2k003wg4h588,0*08
!AIVDO,1,1,,,B000000001qILkwe2k003wg4h588,0*08
!AIVDO,1,1,,,B000000001qILkwe2k003wg4h588,0*08
!AIVDO,1,1,,,B000000001qILkwe2k003wg4h588,0*08
!AIVDO,1,1,,,B000000001qILkwe2k003wg4h588,0*08
!AIVDO,1,1,,,B000000001qILkwe2k003wg4h588,0*08
!AIVDO,1,1,,,B000000001qILkwe2k003wg4h588,0*08
!AIVDO,1,1,,,B000000001qILkwe2k003wg4h588,0*08
!AIVDO,1,1,,,B000000001qILkwe2k003wg4h588,0*08
!AIVDO,1,1,,,B000000001qILkwe2k003wg4h588,0*08
!AIVDO,1,1,,,B000000001qILkwe2k003wg4h588,0*08
$GPGGA,090230.00,0204.23200,S,10604.73359,E,1,06,1.71,18.4,M,15.6,M,,*7
$GPGGA,090230.00,0204.23200,S,10604.73359,E,1,06,1.71,18.4,M,15.6,M,,*7A
$GPGGA,090230.00,0204.23200,S,10604.73359,E,1,06,1.71,18.4,M,15.6,M,,*7A
$GPGGA,090230.00,0204.23200,S,10604.73359,E,1,06,1.71,18.4,M,15.6,M,,*7A
$GPGGA,090230.00,0204.23200,S,10604.73359,E,1,06,1.71,18.4,M,15.6,M,,*7A
$GPGGA,090230.00,0204.23200,S,10604.73359,E,1,06,1.71,18.4,M,15.6,M,,*7A
$GPGGA,090230.00,0204.23200,S,10604.73359,E,1,06,1.71,18.4,M,15.6,M,,*7A
$GPGGA,090230.00,0204.23200,S,10604.73359,E,1,06,1.71,18.4,M,15.6,M,,*7A
$GPGGA,090230.00,0204.23200,S,10604.73359,E,1,06,1.71,18.4,M,15.6,M,,*7A
$GPGGA,090230.00,0204.23200,S,10604.73359,E,1,06,1.71,18.4,M,15.6,M,,*7A
$GPGSA,A,3,28,26,10,32,23,16,,,,,,,2.60,1.71,1.96*0
$GPGSA,A,3,28,26,10,32,23,16,,,,,,,2.60,1.71,1.96*07
$GPGSA,A,3,28,26,10,32,23,16,,,,,,,2.60,1.71,1.96*07
$GPGSA,A,3,28,26,10,32,23,16,,,,,,,2.60,1.71,1.96*07
$GPGSA,A,3,28,26,10,32,23,16,,,,,,,2.60,1.71,1.96*07
$GPGSA,A,3,28,26,10,32,23,16,,,,,,,2.60,1.71,1.96*07
$GPGSA,A,3,28,26,10,32,23,16,,,,,,,2.60,1.71,1.96*07
$GPGSA,A,3,28,26,10,32,23,16,,,,,,,2.60,1.71,1.96*07
$GPGSA,A,3,28,26,10,32,23,16,,,,,,,2.60,1.71,1.96*07
$GPGSA,A,3,28,26,10,32,23,16,,,,,,,2.60,1.71,1.96*07
$GPGSA,A,3,28,26,10,32,23,16,,,,,,,2.60,1.71,1.96*07
$GPGSA,A,3,28,26,10,32,23,16,,,,,,,2.60,1.71,1.96*07
$GPGSA,A,3,28,26,10,32,23,16,,,,,,,2.60,1.71,1.96*07
$GPGSA,A,3,28,26,10,32,23,16,,,,,,,2.60,1.71,1.96*07
$GPGSV,3,1,12,28,17,014,44,26,68,343,44,10,52,160,46,32,40,056,44*7
$GPGSV,3,1,12,28,17,014,44,26,68,343,44,10,52,160,46,32,40,056,44*7A
$GPGSV,3,1,12,28,17,014,44,26,68,343,44,10,52,160,46,32,40,056,44*7A
$GPGSV,3,1,12,28,17,014,44,26,68,343,44,10,52,160,46,32,40,056,44*7A
$GPGSV,3,1,12,28,17,014,44,26,68,343,44,10,52,160,46,32,40,056,44*7A
$GPGSV,3,1,12,28,17,014,44,26,68,343,44,10,52,160,46,32,40,056,44*7A
$GPGSV,3,1,12,28,17,014,44,26,68,343,44,10,52,160,46,32,40,056,44*7A
$GPGSV,3,1,12,28,17,014,44,26,68,343,44,10,52,160,46,32,40,056,44*7A
$GPGSV,3,1,12,28,17,014,44,26,68,343,44,10,52,160,46,32,40,056,44*7A
$GPGSV,3,1,12,28,17,014,44,26,68,343,44,10,52,160,46,32,40,056,44*7A
$GPGSV,3,1,12,28,17,014,44,26,68,343,44,10,52,160,46,32,40,056,44*7A
$GPGSV,3,1,12,28,17,014,44,26,68,343,44,10,52,160,46,32,40,056,44*7A
$GPGSV,3,2,12,31,25,339,,27,27,191,,23,14,150,33,16,63,232,41*7
$GPGSV,3,2,12,31,25,339,,27,27,191,,23,14,150,33,16,63,232,41*7A
$GPGSV,3,2,12,31,25,339,,27,27,191,,23,14,150,33,16,63,232,41*7A
$GPGSV,3,2,12,31,25,339,,27,27,191,,23,14,150,33,16,63,232,41*7A
$GPGSV,3,2,12,31,25,339,,27,27,191,,23,14,150,33,16,63,232,41*7A
$GPGSV,3,2,12,31,25,339,,27,27,191,,23,14,150,33,16,63,232,41*7A
$GPGSV,3,2,12,31,25,339,,27,27,191,,23,14,150,33,16,63,232,41*7A
$GPGSV,3,2,12,31,25,339,,27,27,191,,23,14,150,33,16,63,232,41*7A
$GPGSV,3,2,12,31,25,339,,27,27,191,,23,14,150,33,16,63,232,41*7A
$GPGSV,3,2,12,31,25,339,,27,27,191,,23,14,150,33,16,63,232,41*7A
$GPGSV,3,2,12,31,25,339,,27,27,191,,23,14,150,33,16,63,232,41*7A
$GPGSV,3,3,12,21,10,256,,47,,,39,08,05,213,,29,04,066,*4
$GPGSV,3,3,12,21,10,256,,47,,,39,08,05,213,,29,04,066,*42
$GPGSV,3,3,12,21,10,256,,47,,,39,08,05,213,,29,04,066,*42
$GPGSV,3,3,12,21,10,256,,47,,,39,08,05,213,,29,04,066,*42
$GPGSV,3,3,12,21,10,256,,47,,,39,08,05,213,,29,04,066,*42
$GPGSV,3,3,12,21,10,256,,47,,,39,08,05,213,,29,04,066,*42
$GPGSV,3,3,12,21,10,256,,47,,,39,08,05,213,,29,04,066,*42
$GPGSV,3,3,12,21,10,256,,47,,,39,08,05,213,,29,04,066,*42
$GPGSV,3,3,12,21,10,256,,47,,,39,08,05,213,,29,04,066,*42
$GPGSV,3,3,12,21,10,256,,47,,,39,08,05,213,,29,04,066,*42
$GPGSV,3,3,12,21,10,256,,47,,,39,08,05,213,,29,04,066,*42
$GPGSV,3,3,12,21,10,256,,47,,,39,08,05,213,,29,04,066,*42
$GPGSV,3,3,12,21,10,256,,47,,,39,08,05,213,,29,04,066,*42
$GPGSV,3,3,12,21,10,256,,47,,,39,08,05,213,,29,04,066,*42
$GPGSV,3,3,12,21,10,256,,47,,,39,08,05,213,,29,04,066,*42
$GPGSV,3,3,12,21,10,256,,47,,,39,08,05,213,,29,04,066,*42
$GPGSV,3,3,12,21,10,256,,47,,,39,08,05,213,,29,04,066,*42
$GPGSV,3,3,12,21,10,256,,47,,,39,08,05,213,,29,04,066,*42
$GPGSV,3,3,12,21,10,256,,47,,,39,08,05,213,,29,04,066,*42
$GPGSV,3,3,12,21,10,256,,47,,,39,08,05,213,,29,04,066,*42
$GPGSV,3,3,12,21,10,256,,47,,,39,08,05,213,,29,04,066,*42
$GPGSV,3,3,12,21,10,256,,47,,,39,08,05,213,,29,04,066,*42
$GPGSV,3,3,12,21,10,256,,47,,,39,08,05,213,,29,04,066,*42
$GPGSV,3,3,12,21,10,256,,47,,,39,08,05,213,,29,04,066,*42
$GPGSV,3,3,12,21,10,256,,47,,,39,08,05,213,,29,04,066,*42
$GPGSV,3,3,12,21,10,256,,47,,,39,08,05,213,,29,04,066,*42
$GPGSV,3,3,12,21,10,256,,47,,,39,08,05,213,,29,04,066,*42
$GPGSV,3,3,12,21,10,256,,47,,,39,08,05,213,,29,04,066,*42
$GPGSV,3,3,12,21,10,256,,47,,,39,08,05,213,,29,04,066,*42
$GPGSV,3,3,12,21,10,256,,47,,,39,08,05,213,,29,04,066,*42
$GPGSV,3,3,12,21,10,256,,47,,,39,08,05,213,,29,04,066,*42
$GPGSV,3,3,12,21,10,256,,47,,,39,08,05,213,,29,04,066,*42
$GPGSV,3,3,12,21,10,256,,47,,,39,08,05,213,,29,04,066,*42
$GPGSV,3,3,12,21,10,256,,47,,,39,08,05,213,,29,04,066,*42
$GPRMC,090231.00,A,0204.23197,S,10604.73364,E,0.023,68.04,250924,,,A*4
!AIVDO,1,1,,,B000000001qILlOe2k4bSwgTh588,0*6
!AIVDO,1,1,,,B000000001qILlOe2k4bSwgTh588,0*61
!AIVDO,1,1,,,B000000001qILlOe2k4bSwgTh588,0*61
!AIVDO,1,1,,,B000000001qILlOe2k4bSwgTh588,0*61
!AIVDO,1,1,,,B000000001qILlOe2k4bSwgTh588,0*61
!AIVDO,1,1,,,B000000001qILlOe2k4bSwgTh588,0*61
!AIVDO,1,1,,,B000000001qILlOe2k4bSwgTh588,0*61
!AIVDO,1,1,,,B000000001qILlOe2k4bSwgTh588,0*61
!AIVDO,1,1,,,B000000001qILlOe2k4bSwgTh588,0*61
!AIVDO,1,1,,,B000000001qILlOe2k4bSwgTh588,0*61
!AIVDO,1,1,,,B000000001qILlOe2k4bSwgTh588,0*61
!AIVDO,1,1,,,B000000001qILlOe2k4bSwgTh588,0*61
$GPGGA,090231.00,0204.23197,S,10604.73364,E,1,07,1.71,18.3,M,15.6,M,,*7
$GPGGA,090231.00,0204.23197,S,10604.73364,E,1,07,1.71,18.3,M,15.6,M,,*7E
$GPGGA,090231.00,0204.23197,S,10604.73364,E,1,07,1.71,18.3,M,15.6,M,,*7E
$GPGGA,090231.00,0204.23197,S,10604.73364,E,1,07,1.71,18.3,M,15.6,M,,*7E
$GPGGA,090231.00,0204.23197,S,10604.73364,E,1,07,1.71,18.3,M,15.6,M,,*7E
$GPGGA,090231.00,0204.23197,S,10604.73364,E,1,07,1.71,18.3,M,15.6,M,,*7E
$GPGGA,090231.00,0204.23197,S,10604.73364,E,1,07,1.71,18.3,M,15.6,M,,*7E
$GPGGA,090231.00,0204.23197,S,10604.73364,E,1,07,1.71,18.3,M,15.6,M,,*7E
$GPGGA,090231.00,0204.23197,S,10604.73364,E,1,07,1.71,18.3,M,15.6,M,,*7E
$GPGGA,090231.00,0204.23197,S,10604.73364,E,1,07,1.71,18.3,M,15.6,M,,*7E
$GPGGA,090231.00,0204.23197,S,10604.73364,E,1,07,1.71,18.3,M,15.6,M,,*7E
$GPGGA,090231.00,0204.23197,S,10604.73364,E,1,07,1.71,18.3,M,15.6,M,,*7E
$GPGGA,090231.00,0204.23197,S,10604.73364,E,1,07,1.71,18.3,M,15.6,M,,*7E
$GPGGA,090231.00,0204.23197,S,10604.73364,E,1,07,1.71,18.3,M,15.6,M,,*7E
$GPGGA,090231.00,0204.23197,S,10604.73364,E,1,07,1.71,18.3,M,15.6,M,,*7E
$GPGGA,090231.00,0204.23197,S,10604.73364,E,1,07,1.71,18.3,M,15.6,M,,*7E
$GPGGA,090231.00,0204.23197,S,10604.73364,E,1,07,1.71,18.3,M,15.6,M,,*7E
$GPGGA,090231.00,0204.23197,S,10604.73364,E,1,07,1.71,18.3,M,15.6,M,,*7E
$GPGGA,090231.00,0204.23197,S,10604.73364,E,1,07,1.71,18.3,M,15.6,M,,*7E
$GPGGA,090231.00,0204.23197,S,10604.73364,E,1,07,1.71,18.3,M,15.6,M,,*7E
$GPGGA,090231.00,0204.23197,S,10604.73364,E,1,07,1.71,18.3,M,15.6,M,,*7E
$GPGGA,090231.00,0204.23197,S,10604.73364,E,1,07,1.71,18.3,M,15.6,M,,*7E
$GPGGA,090231.00,0204.23197,S,10604.73364,E,1,07,1.71,18.3,M,15.6,M,,*7E
$GPGGA,090231.00,0204.23197,S,10604.73364,E,1,07,1.71,18.3,M,15.6,M,,*7E
$GPGGA,090231.00,0204.23197,S,10604.73364,E,1,07,1.71,18.3,M,15.6,M,,*7E
$GPGGA,090231.00,0204.23197,S,10604.73364,E,1,07,1.71,18.3,M,15.6,M,,*7E
$GPGGA,090231.00,0204.23197,S,10604.73364,E,1,07,1.71,18.3,M,15.6,M,,*7E
$GPGGA,090231.00,0204.23197,S,10604.73364,E,1,07,1.71,18.3,M,15.6,M,,*7E
$GPGGA,090231.00,0204.23197,S,10604.73364,E,1,07,1.71,18.3,M,15.6,M,,*7E
$GPGGA,090231.00,0204.23197,S,10604.73364,E,1,07,1.71,18.3,M,15.6,M,,*7E
$GPGGA,090231.00,0204.23197,S,10604.73364,E,1,07,1.71,18.3,M,15.6,M,,*7E
$GPGGA,090231.00,0204.23197,S,10604.73364,E,1,07,1.71,18.3,M,15.6,M,,*7E
$GPGGA,090231.00,0204.23197,S,10604.73364,E,1,07,1.71,18.3,M,15.6,M,,*7E
$GPGGA,090231.00,0204.23197,S,10604.73364,E,1,07,1.71,18.3,M,15.6,M,,*7E
$GPGGA,090231.00,0204.23197,S,10604.73364,E,1,07,1.71,18.3,M,15.6,M,,*7E
$GPGGA,090231.00,0204.23197,S,10604.73364,E,1,07,1.71,18.3,M,15.6,M,,*7E
$GPGGA,090231.00,0204.23197,S,10604.73364,E,1,07,1.71,18.3,M,15.6,M,,*7E
$GPGGA,090231.00,0204.23197,S,10604.73364,E,1,07,1.71,18.3,M,15.6,M,,*7E
$GPGGA,090231.00,0204.23197,S,10604.73364,E,1,07,1.71,18.3,M,15.6,M,,*7E
$GPGGA,090231.00,0204.23197,S,10604.73364,E,1,07,1.71,18.3,M,15.6,M,,*7E
$GPGGA,090231.00,0204.23197,S,10604.73364,E,1,07,1.71,18.3,M,15.6,M,,*7E
$GPGGA,090231.00,0204.23197,S,10604.73364,E,1,07,1.71,18.3,M,15.6,M,,*7E
$GPGGA,090231.00,0204.23197,S,10604.73364,E,1,07,1.71,18.3,M,15.6,M,,*7E
$GPGGA,090231.00,0204.23197,S,10604.73364,E,1,07,1.71,18.3,M,15.6,M,,*7E
$GPGGA,090231.00,0204.23197,S,10604.73364,E,1,07,1.71,18.3,M,15.6,M,,*7E
$GPGGA,090231.00,0204.23197,S,10604.73364,E,1,07,1.71,18.3,M,15.6,M,,*7E
$GPGGA,090231.00,0204.23197,S,10604.73364,E,1,07,1.71,18.3,M,15.6,M,,*7E
$GPGGA,090231.00,0204.23197,S,10604.73364,E,1,07,1.71,18.3,M,15.6,M,,*7E
$GPGGA,090231.00,0204.23197,S,10604.73364,E,1,07,1.71,18.3,M,15.6,M,,*7E
$GPGGA,090231.00,0204.23197,S,10604.73364,E,1,07,1.71,18.3,M,15.6,M,,*7E
$GPGGA,090231.00,0204.23197,S,10604.73364,E,1,07,1.71,18.3,M,15.6,M,,*7E
$GPGGA,090231.00,0204.23197,S,10604.73364,E,1,07,1.71,18.3,M,15.6,M,,*7E
$GPGGA,090231.00,0204.23197,S,10604.73364,E,1,07,1.71,18.3,M,15.6,M,,*7E
$GPGGA,090231.00,0204.23197,S,10604.73364,E,1,07,1.71,18.3,M,15.6,M,,*7E
$GPGGA,090231.00,0204.23197,S,10604.73364,E,1,07,1.71,18.3,M,15.6,M,,*7E
$GPGGA,090231.00,0204.23197,S,10604.73364,E,1,07,1.71,18.3,M,15.6,M,,*7E
$GPGGA,090231.00,0204.23197,S,10604.73364,E,1,07,1.71,18.3,M,15.6,M,,*7E
$GPGGA,090231.00,0204.23197,S,10604.73364,E,1,07,1.71,18.3,M,15.6,M,,*7E
$GPGGA,090231.00,0204.23197,S,10604.73364,E,1,07,1.71,18.3,M,15.6,M,,*7E
$GPGGA,090231.00,0204.23197,S,10604.73364,E,1,07,1.71,18.3,M,15.6,M,,*7E
$GPGGA,090231.00,0204.23197,S,10604.73364,E,1,07,1.71,18.3,M,15.6,M,,*7E
$GPGGA,090231.00,0204.23197,S,10604.73364,E,1,07,1.71,18.3,M,15.6,M,,*7E
$GPGGA,090231.00,0204.23197,S,10604.73364,E,1,07,1.71,18.3,M,15.6,M,,*7E
$GPGGA,090231.00,0204.23197,S,10604.73364,E,1,07,1.71,18.3,M,15.6,M,,*7E
$GPGGA,090231.00,0204.23197,S,10604.73364,E,1,07,1.71,18.3,M,15.6,M,,*7E
$GPGGA,090231.00,0204.23197,S,10604.73364,E,1,07,1.71,18.3,M,15.6,M,,*7E
$GPGGA,090231.00,0204.23197,S,10604.73364,E,1,07,1.71,18.3,M,15.6,M,,*7E
$GPGGA,090231.00,0204.23197,S,10604.73364,E,1,07,1.71,18.3,M,15.6,M,,*7E
$GPGGA,090231.00,0204.23197,S,10604.73364,E,1,07,1.71,18.3,M,15.6,M,,*7E
$GPGGA,090231.00,0204.23197,S,10604.73364,E,1,07,1.71,18.3,M,15.6,M,,*7E
$GPGGA,090231.00,0204.23197,S,10604.73364,E,1,07,1.71,18.3,M,15.6,M,,*7E
$GPGGA,090231.00,0204.23197,S,10604.73364,E,1,07,1.71,18.3,M,15.6,M,,*7E
$GPGGA,090231.00,0204.23197,S,10604.73364,E,1,07,1.71,18.3,M,15.6,M,,*7E
$GPGGA,090231.00,0204.23197,S,10604.73364,E,1,07,1.71,18.3,M,15.6,M,,*7E
$GPGGA,090231.00,0204.23197,S,10604.73364,E,1,07,1.71,18.3,M,15.6,M,,*7E
$GPGGA,090231.00,0204.23197,S,10604.73364,E,1,07,1.71,18.3,M,15.6,M,,*7E
$GPGGA,090231.00,0204.23197,S,10604.73364,E,1,07,1.71,18.3,M,15.6,M,,*7E
$GPGGA,090231.00,0204.23197,S,10604.73364,E,1,07,1.71,18.3,M,15.6,M,,*7E
$GPGGA,090231.00,0204.23197,S,10604.73364,E,1,07,1.71,18.3,M,15.6,M,,*7E
$GPGGA,090231.00,0204.23197,S,10604.73364,E,1,07,1.71,18.3,M,15.6,M,,*7E
$GPGGA,090231.00,0204.23197,S,10604.73364,E,1,07,1.71,18.3,M,15.6,M,,*7E
$GPGGA,090231.00,0204.23197,S,10604.73364,E,1,07,1.71,18.3,M,15.6,M,,*7E
$GPRMC,090232.00,A,0204.23193,S,10604.73368,E,0.004,,250924,,,A*6
!AIVDO,1,1,,,B000000001qILlOe2k403wh4h588,0*3
!AIVDO,1,1,,,B000000001qILlOe2k403wh4h588,0*3C
!AIVDO,1,1,,,B000000001qILlOe2k403wh4h588,0*3C
!AIVDO,1,1,,,B000000001qILlOe2k403wh4h588,0*3C
!AIVDO,1,1,,,B000000001qILlOe2k403wh4h588,0*3C
!AIVDO,1,1,,,B000000001qILlOe2k403wh4h588,0*3C
!AIVDO,1,1,,,B000000001qILlOe2k403wh4h588,0*3C
!AIVDO,1,1,,,B000000001qILlOe2k403wh4h588,0*3C
!AIVDO,1,1,,,B000000001qILlOe2k403wh4h588,0*3C
!AIVDO,1,1,,,B000000001qILlOe2k403wh4h588,0*3C
!AIVDO,1,1,,,B000000001qILlOe2k403wh4h588,0*3C
!AIVDO,1,1,,,B000000001qILlOe2k403wh4h588,0*3C
$GPGGA,090232.00,0204.23193,S,10604.73368,E,1,08,1.71,18.2,M,15.6,M,,*7
$GPGGA,090232.00,0204.23193,S,10604.73368,E,1,08,1.71,18.2,M,15.6,M,,*7B
$GPGGA,090232.00,0204.23193,S,10604.73368,E,1,08,1.71,18.2,M,15.6,M,,*7B
$GPGGA,090232.00,0204.23193,S,10604.73368,E,1,08,1.71,18.2,M,15.6,M,,*7B
$GPGGA,090232.00,0204.23193,S,10604.73368,E,1,08,1.71,18.2,M,15.6,M,,*7B
$GPGGA,090232.00,0204.23193,S,10604.73368,E,1,08,1.71,18.2,M,15.6,M,,*7B
$GPGGA,090232.00,0204.23193,S,10604.73368,E,1,08,1.71,18.2,M,15.6,M,,*7B
$GPGGA,090232.00,0204.23193,S,10604.73368,E,1,08,1.71,18.2,M,15.6,M,,*7B
$GPGGA,090232.00,0204.23193,S,10604.73368,E,1,08,1.71,18.2,M,15.6,M,,*7B
$GPGGA,090232.00,0204.23193,S,10604.73368,E,1,08,1.71,18.2,M,15.6,M,,*7B
$GPGGA,090232.00,0204.23193,S,10604.73368,E,1,08,1.71,18.2,M,15.6,M,,*7B
$GPGGA,090232.00,0204.23193,S,10604.73368,E,1,08,1.71,18.2,M,15.6,M,,*7B
$GPGGA,090232.00,0204.23193,S,10604.73368,E,1,08,1.71,18.2,M,15.6,M,,*7B
$GPGGA,090232.00,0204.23193,S,10604.73368,E,1,08,1.71,18.2,M,15.6,M,,*7B
$GPGGA,090232.00,0204.23193,S,10604.73368,E,1,08,1.71,18.2,M,15.6,M,,*7B
$GPGGA,090232.00,0204.23193,S,10604.73368,E,1,08,1.71,18.2,M,15.6,M,,*7B
$GPGGA,090232.00,0204.23193,S,10604.73368,E,1,08,1.71,18.2,M,15.6,M,,*7B
$GPGGA,090232.00,0204.23193,S,10604.73368,E,1,08,1.71,18.2,M,15.6,M,,*7B
$GPGGA,090232.00,0204.23193,S,10604.73368,E,1,08,1.71,18.2,M,15.6,M,,*7B
$GPGGA,090232.00,0204.23193,S,10604.73368,E,1,08,1.71,18.2,M,15.6,M,,*7B
$GPGGA,090232.00,0204.23193,S,10604.73368,E,1,08,1.71,18.2,M,15.6,M,,*7B
$GPGGA,090232.00,0204.23193,S,10604.73368,E,1,08,1.71,18.2,M,15.6,M,,*7B
$GPGGA,090232.00,0204.23193,S,10604.73368,E,1,08,1.71,18.2,M,15.6,M,,*7B
$GPGGA,090232.00,0204.23193,S,10604.73368,E,1,08,1.71,18.2,M,15.6,M,,*7B
$GPGGA,090232.00,0204.23193,S,10604.73368,E,1,08,1.71,18.2,M,15.6,M,,*7B
$GPGGA,090232.00,0204.23193,S,10604.73368,E,1,08,1.71,18.2,M,15.6,M,,*7B
$GPGGA,090232.00,0204.23193,S,10604.73368,E,1,08,1.71,18.2,M,15.6,M,,*7B
$GPGGA,090232.00,0204.23193,S,10604.73368,E,1,08,1.71,18.2,M,15.6,M,,*7B
$GPGGA,090232.00,0204.23193,S,10604.73368,E,1,08,1.71,18.2,M,15.6,M,,*7B
$GPGGA,090232.00,0204.23193,S,10604.73368,E,1,08,1.71,18.2,M,15.6,M,,*7B
$GPGGA,090232.00,0204.23193,S,10604.73368,E,1,08,1.71,18.2,M,15.6,M,,*7B
$GPGGA,090232.00,0204.23193,S,10604.73368,E,1,08,1.71,18.2,M,15.6,M,,*7B
$GPGGA,090232.00,0204.23193,S,10604.73368,E,1,08,1.71,18.2,M,15.6,M,,*7B
$GPGGA,090232.00,0204.23193,S,10604.73368,E,1,08,1.71,18.2,M,15.6,M,,*7B
$GPGGA,090232.00,0204.23193,S,10604.73368,E,1,08,1.71,18.2,M,15.6,M,,*7B
$GPGGA,090232.00,0204.23193,S,10604.73368,E,1,08,1.71,18.2,M,15.6,M,,*7B
$GPGGA,090232.00,0204.23193,S,10604.73368,E,1,08,1.71,18.2,M,15.6,M,,*7B
$GPGGA,090232.00,0204.23193,S,10604.73368,E,1,08,1.71,18.2,M,15.6,M,,*7B
$GPGGA,090232.00,0204.23193,S,10604.73368,E,1,08,1.71,18.2,M,15.6,M,,*7B
$GPGGA,090232.00,0204.23193,S,10604.73368,E,1,08,1.71,18.2,M,15.6,M,,*7B
$GPGGA,090232.00,0204.23193,S,10604.73368,E,1,08,1.71,18.2,M,15.6,M,,*7B
$GPGGA,090232.00,0204.23193,S,10604.73368,E,1,08,1.71,18.2,M,15.6,M,,*7B
$GPGGA,090232.00,0204.23193,S,10604.73368,E,1,08,1.71,18.2,M,15.6,M,,*7B
$GPGGA,090232.00,0204.23193,S,10604.73368,E,1,08,1.71,18.2,M,15.6,M,,*7B
$GPGGA,090232.00,0204.23193,S,10604.73368,E,1,08,1.71,18.2,M,15.6,M,,*7B
$GPGGA,090232.00,0204.23193,S,10604.73368,E,1,08,1.71,18.2,M,15.6,M,,*7B
$GPGGA,090232.00,0204.23193,S,10604.73368,E,1,08,1.71,18.2,M,15.6,M,,*7B
$GPGGA,090232.00,0204.23193,S,10604.73368,E,1,08,1.71,18.2,M,15.6,M,,*7B
$GPGGA,090232.00,0204.23193,S,10604.73368,E,1,08,1.71,18.2,M,15.6,M,,*7B
$GPGGA,090232.00,0204.23193,S,10604.73368,E,1,08,1.71,18.2,M,15.6,M,,*7B
$GPGGA,090232.00,0204.23193,S,10604.73368,E,1,08,1.71,18.2,M,15.6,M,,*7B
$GPGGA,090232.00,0204.23193,S,10604.73368,E,1,08,1.71,18.2,M,15.6,M,,*7B
$GPGGA,090232.00,0204.23193,S,10604.73368,E,1,08,1.71,18.2,M,15.6,M,,*7B
$GPGGA,090232.00,0204.23193,S,10604.73368,E,1,08,1.71,18.2,M,15.6,M,,*7B
$GPGGA,090232.00,0204.23193,S,10604.73368,E,1,08,1.71,18.2,M,15.6,M,,*7B
$GPGGA,090232.00,0204.23193,S,10604.73368,E,1,08,1.71,18.2,M,15.6,M,,*7B
$GPGGA,090232.00,0204.23193,S,10604.73368,E,1,08,1.71,18.2,M,15.6,M,,*7B
$GPGGA,090232.00,0204.23193,S,10604.73368,E,1,08,1.71,18.2,M,15.6,M,,*7B
$GPGGA,090232.00,0204.23193,S,10604.73368,E,1,08,1.71,18.2,M,15.6,M,,*7B
$GPGGA,090232.00,0204.23193,S,10604.73368,E,1,08,1.71,18.2,M,15.6,M,,*7B
$GPGGA,090232.00,0204.23193,S,10604.73368,E,1,08,1.71,18.2,M,15.6,M,,*7B
$GPGGA,090232.00,0204.23193,S,10604.73368,E,1,08,1.71,18.2,M,15.6,M,,*7B
$GPGGA,090232.00,0204.23193,S,10604.73368,E,1,08,1.71,18.2,M,15.6,M,,*7B
$GPGGA,090232.00,0204.23193,S,10604.73368,E,1,08,1.71,18.2,M,15.6,M,,*7B
$GPGGA,090232.00,0204.23193,S,10604.73368,E,1,08,1.71,18.2,M,15.6,M,,*7B
$GPGGA,090232.00,0204.23193,S,10604.73368,E,1,08,1.71,18.2,M,15.6,M,,*7B
$GPGGA,090232.00,0204.23193,S,10604.73368,E,1,08,1.71,18.2,M,15.6,M,,*7B
$GPGGA,090232.00,0204.23193,S,10604.73368,E,1,08,1.71,18.2,M,15.6,M,,*7B
$GPGGA,090232.00,0204.23193,S,10604.73368,E,1,08,1.71,18.2,M,15.6,M,,*7B
$GPGGA,090232.00,0204.23193,S,10604.73368,E,1,08,1.71,18.2,M,15.6,M,,*7B
$GPGGA,090232.00,0204.23193,S,10604.73368,E,1,08,1.71,18.2,M,15.6,M,,*7B
$GPGGA,090232.00,0204.23193,S,10604.73368,E,1,08,1.71,18.2,M,15.6,M,,*7B
$GPGGA,090232.00,0204.23193,S,10604.73368,E,1,08,1.71,18.2,M,15.6,M,,*7B
$GPGGA,090232.00,0204.23193,S,10604.73368,E,1,08,1.71,18.2,M,15.6,M,,*7B
$GPGGA,090232.00,0204.23193,S,10604.73368,E,1,08,1.71,18.2,M,15.6,M,,*7B
$GPGGA,090232.00,0204.23193,S,10604.73368,E,1,08,1.71,18.2,M,15.6,M,,*7B
$GPGGA,090232.00,0204.23193,S,10604.73368,E,1,08,1.71,18.2,M,15.6,M,,*7B
$GPGGA,090232.00,0204.23193,S,10604.73368,E,1,08,1.71,18.2,M,15.6,M,,*7B
$GPGGA,090232.00,0204.23193,S,10604.73368,E,1,08,1.71,18.2,M,15.6,M,,*7B
$GPGGA,090232.00,0204.23193,S,10604.73368,E,1,08,1.71,18.2,M,15.6,M,,*7B
$GPGGA,090232.00,0204.23193,S,10604.73368,E,1,08,1.71,18.2,M,15.6,M,,*7B
$GPGGA,090232.00,0204.23193,S,10604.73368,E,1,08,1.71,18.2,M,15.6,M,,*7B
$GPGGA,090232.00,0204.23193,S,10604.73368,E,1,08,1.71,18.2,M,15.6,M,,*7B
$GPRMC,090233.00,A,0204.23190,S,10604.73370,E,0.018,,250924,,,A*6
!AIVDO,1,1,,,B000000001qILlwe2k403whTh588,0*6
!AIVDO,1,1,,,B000000001qILlwe2k403whTh588,0*64
!AIVDO,1,1,,,B000000001qILlwe2k403whTh588,0*64
!AIVDO,1,1,,,B000000001qILlwe2k403whTh588,0*64
!AIVDO,1,1,,,B000000001qILlwe2k403whTh588,0*64
!AIVDO,1,1,,,B000000001qILlwe2k403whTh588,0*64
!AIVDO,1,1,,,B000000001qILlwe2k403whTh588,0*64
!AIVDO,1,1,,,B000000001qILlwe2k403whTh588,0*64
!AIVDO,1,1,,,B000000001qILlwe2k403whTh588,0*64
!AIVDO,1,1,,,B000000001qILlwe2k403whTh588,0*64
!AIVDO,1,1,,,B000000001qILlwe2k403whTh588,0*64
!AIVDO,1,1,,,B000000001qILlwe2k403whTh588,0*64
$GPGGA,090233.00,0204.23190,S,10604.73370,E,1,08,1.71,18.1,M,15.6,M,,*7
$GPGGA,090233.00,0204.23190,S,10604.73370,E,1,08,1.71,18.1,M,15.6,M,,*73
$GPGGA,090233.00,0204.23190,S,10604.73370,E,1,08,1.71,18.1,M,15.6,M,,*73
$GPGGA,090233.00,0204.23190,S,10604.73370,E,1,08,1.71,18.1,M,15.6,M,,*73
$GPGGA,090233.00,0204.23190,S,10604.73370,E,1,08,1.71,18.1,M,15.6,M,,*73
$GPGGA,090233.00,0204.23190,S,10604.73370,E,1,08,1.71,18.1,M,15.6,M,,*73
$GPGGA,090233.00,0204.23190,S,10604.73370,E,1,08,1.71,18.1,M,15.6,M,,*73
$GPGGA,090233.00,0204.23190,S,10604.73370,E,1,08,1.71,18.1,M,15.6,M,,*73
$GPGGA,090233.00,0204.23190,S,10604.73370,E,1,08,1.71,18.1,M,15.6,M,,*73
$GPGGA,090233.00,0204.23190,S,10604.73370,E,1,08,1.71,18.1,M,15.6,M,,*73
$GPGSA,A,3,28,26,10,32,31,27,23,16,,,,,2.60,1.71,1.96*0
$GPGSA,A,3,28,26,10,32,31,27,23,16,,,,,2.60,1.71,1.96*00
$GPGSA,A,3,28,26,10,32,31,27,23,16,,,,,2.60,1.71,1.96*00
$GPGSA,A,3,28,26,10,32,31,27,23,16,,,,,2.60,1.71,1.96*00
$GPGSA,A,3,28,26,10,32,31,27,23,16,,,,,2.60,1.71,1.96*00
$GPGSA,A,3,28,26,10,32,31,27,23,16,,,,,2.60,1.71,1.96*00
$GPGSA,A,3,28,26,10,32,31,27,23,16,,,,,2.60,1.71,1.96*00
$GPGSA,A,3,28,26,10,32,31,27,23,16,,,,,2.60,1.71,1.96*00
$GPGSA,A,3,28,26,10,32,31,27,23,16,,,,,2.60,1.71,1.96*00
$GPGSA,A,3,28,26,10,32,31,27,23,16,,,,,2.60,1.71,1.96*00
$GPGSA,A,3,28,26,10,32,31,27,23,16,,,,,2.60,1.71,1.96*00
$GPGSA,A,3,28,26,10,32,31,27,23,16,,,,,2.60,1.71,1.96*00
$GPGSA,A,3,28,26,10,32,31,27,23,16,,,,,2.60,1.71,1.96*00
$GPGSA,A,3,28,26,10,32,31,27,23,16,,,,,2.60,1.71,1.96*00
$GPGSV,3,1,12,28,17,015,44,26,68,343,44,10,52,160,45,32,40,056,46*7
$GPGSV,3,1,12,28,17,015,44,26,68,343,44,10,52,160,45,32,40,056,46*7A
$GPGSV,3,1,12,28,17,015,44,26,68,343,44,10,52,160,45,32,40,056,46*7A
$GPGSV,3,1,12,28,17,015,44,26,68,343,44,10,52,160,45,32,40,056,46*7A
$GPGSV,3,1,12,28,17,015,44,26,68,343,44,10,52,160,45,32,40,056,46*7A
$GPGSV,3,1,12,28,17,015,44,26,68,343,44,10,52,160,45,32,40,056,46*7A
$GPGSV,3,1,12,28,17,015,44,26,68,343,44,10,52,160,45,32,40,056,46*7A
$GPGSV,3,1,12,28,17,015,44,26,68,343,44,10,52,160,45,32,40,056,46*7A
$GPGSV,3,1,12,28,17,015,44,26,68,343,44,10,52,160,45,32,40,056,46*7A
$GPGSV,3,1,12,28,17,015,44,26,68,343,44,10,52,160,45,32,40,056,46*7A
$GPGSV,3,1,12,28,17,015,44,26,68,343,44,10,52,160,45,32,40,056,46*7A
$GPGSV,3,1,12,28,17,015,44,26,68,343,44,10,52,160,45,32,40,056,46*7A
$GPGSV,3,1,12,28,17,015,44,26,68,343,44,10,52,160,45,32,40,056,46*7A
$GPGSV,3,1,12,28,17,015,44,26,68,343,44,10,52,160,45,32,40,056,46*7A
$GPGSV,3,2,12,31,25,339,28,27,27,191,30,23,14,150,37,16,63,232,41*7
$GPGSV,3,2,12,31,25,339,28,27,27,191,30,23,14,150,37,16,63,232,41*77
$GPGSV,3,2,12,31,25,339,28,27,27,191,30,23,14,150,37,16,63,232,41*77
$GPGSV,3,2,12,31,25,339,28,27,27,191,30,23,14,150,37,16,63,232,41*77
$GPGSV,3,2,12,31,25,339,28,27,27,191,30,23,14,150,37,16,63,232,41*77
$GPGSV,3,2,12,31,25,339,28,27,27,191,30,23,14,150,37,16,63,232,41*77
$GPGSV,3,2,12,31,25,339,28,27,27,191,30,23,14,150,37,16,63,232,41*77
$GPGSV,3,2,12,31,25,339,28,27,27,191,30,23,14,150,37,16,63,232,41*77
$GPGSV,3,2,12,31,25,339,28,27,27,191,30,23,14,150,37,16,63,232,41*77
$GPGSV,3,2,12,31,25,339,28,27,27,191,30,23,14,150,37,16,63,232,41*77
$GPGSV,3,2,12,31,25,339,28,27,27,191,30,23,14,150,37,16,63,232,41*77
$GPGSV,3,3,12,21,10,256,,47,,,38,08,05,213,,29,04,065,*4
$GPGSV,3,3,12,21,10,256,,47,,,38,08,05,213,,29,04,065,*40
$GPGSV,3,3,12,21,10,256,,47,,,38,08,05,213,,29,04,065,*40
$GPGSV,3,3,12,21,10,256,,47,,,38,08,05,213,,29,04,065,*40
$GPGSV,3,3,12,21,10,256,,47,,,38,08,05,213,,29,04,065,*40
$GPGSV,3,3,12,21,10,256,,47,,,38,08,05,213,,29,04,065,*40
$GPGSV,3,3,12,21,10,256,,47,,,38,08,05,213,,29,04,065,*40
$GPGSV,3,3,12,21,10,256,,47,,,38,08,05,213,,29,04,065,*40
$GPGSV,3,3,12,21,10,256,,47,,,38,08,05,213,,29,04,065,*40
$GPGSV,3,3,12,21,10,256,,47,,,38,08,05,213,,29,04,065,*40
$GPGSV,3,3,12,21,10,256,,47,,,38,08,05,213,,29,04,065,*40
$GPGSV,3,3,12,21,10,256,,47,,,38,08,05,213,,29,04,065,*40
$GPGSV,3,3,12,21,10,256,,47,,,38,08,05,213,,29,04,065,*40
$GPGSV,3,3,12,21,10,256,,47,,,38,08,05,213,,29,04,065,*40
$GPGSV,3,3,12,21,10,256,,47,,,38,08,05,213,,29,04,065,*40
$GPGSV,3,3,12,21,10,256,,47,,,38,08,05,213,,29,04,065,*40
$GPGSV,3,3,12,21,10,256,,47,,,38,08,05,213,,29,04,065,*40
$GPGSV,3,3,12,21,10,256,,47,,,38,08,05,213,,29,04,065,*40
$GPGSV,3,3,12,21,10,256,,47,,,38,08,05,213,,29,04,065,*40
$GPGSV,3,3,12,21,10,256,,47,,,38,08,05,213,,29,04,065,*40
$GPGSV,3,3,12,21,10,256,,47,,,38,08,05,213,,29,04,065,*40
$GPGSV,3,3,12,21,10,256,,47,,,38,08,05,213,,29,04,065,*40
$GPGSV,3,3,12,21,10,256,,47,,,38,08,05,213,,29,04,065,*40
$GPGSV,3,3,12,21,10,256,,47,,,38,08,05,213,,29,04,065,*40
$GPGSV,3,3,12,21,10,256,,47,,,38,08,05,213,,29,04,065,*40
$GPGSV,3,3,12,21,10,256,,47,,,38,08,05,213,,29,04,065,*40
$GPGSV,3,3,12,21,10,256,,47,,,38,08,05,213,,29,04,065,*40
$GPGSV,3,3,12,21,10,256,,47,,,38,08,05,213,,29,04,065,*40
$GPGSV,3,3,12,21,10,256,,47,,,38,08,05,213,,29,04,065,*40
$GPGSV,3,3,12,21,10,256,,47,,,38,08,05,213,,29,04,065,*40
$GPRMC,090234.00,A,0204.23189,S,10604.73375,E,0.014,,250924,,,A*6
!AIVDO,1,1,,,B000000001qILlwe2k803wi4h588,0*0
!AIVDO,1,1,,,B000000001qILlwe2k803wi4h588,0*09
!AIVDO,1,1,,,B000000001qILlwe2k803wi4h588,0*09
!AIVDO,1,1,,,B000000001qILlwe2k803wi4h588,0*09
!AIVDO,1,1,,,B000000001qILlwe2k803wi4h588,0*09
!AIVDO,1,1,,,B000000001qILlwe2k803wi4h588,0*09
!AIVDO,1,1,,,B000000001qILlwe2k803wi4h588,0*09
!AIVDO,1,1,,,B000000001qILlwe2k803wi4h588,0*09
!AIVDO,1,1,,,B000000001qILlwe2k803wi4h588,0*09
!AIVDO,1,1,,,B000000001qILlwe2k803wi4h588,0*09
!AIVDO,1,1,,,B000000001qILlwe2k803wi4h588,0*09
!AIVDO,1,1,,,B000000001qILlwe2k803wi4h588,0*09
$GPGGA,090234.00,0204.23189,S,10604.73375,E,1,08,1.71,18.0,M,15.6,M,,*7
$GPGGA,090234.00,0204.23189,S,10604.73375,E,1,08,1.71,18.0,M,15.6,M,,*78
$GPGGA,090234.00,0204.23189,S,10604.73375,E,1,08,1.71,18.0,M,15.6,M,,*78
$GPGGA,090234.00,0204.23189,S,10604.73375,E,1,08,1.71,18.0,M,15.6,M,,*78
$GPGGA,090234.00,0204.23189,S,10604.73375,E,1,08,1.71,18.0,M,15.6,M,,*78
$GPGGA,090234.00,0204.23189,S,10604.73375,E,1,08,1.71,18.0,M,15.6,M,,*78
$GPGGA,090234.00,0204.23189,S,10604.73375,E,1,08,1.71,18.0,M,15.6,M,,*78
$GPGGA,090234.00,0204.23189,S,10604.73375,E,1,08,1.71,18.0,M,15.6,M,,*78
$GPGGA,090234.00,0204.23189,S,10604.73375,E,1,08,1.71,18.0,M,15.6,M,,*78
$GPGGA,090234.00,0204.23189,S,10604.73375,E,1,08,1.71,18.0,M,15.6,M,,*78
$GPGGA,090234.00,0204.23189,S,10604.73375,E,1,08,1.71,18.0,M,15.6,M,,*78
$GPGGA,090234.00,0204.23189,S,10604.73375,E,1,08,1.71,18.0,M,15.6,M,,*78
$GPGGA,090234.00,0204.23189,S,10604.73375,E,1,08,1.71,18.0,M,15.6,M,,*78
$GPGGA,090234.00,0204.23189,S,10604.73375,E,1,08,1.71,18.0,M,15.6,M,,*78
$GPGGA,090234.00,0204.23189,S,10604.73375,E,1,08,1.71,18.0,M,15.6,M,,*78
$GPGGA,090234.00,0204.23189,S,10604.73375,E,1,08,1.71,18.0,M,15.6,M,,*78
$GPGGA,090234.00,0204.23189,S,10604.73375,E,1,08,1.71,18.0,M,15.6,M,,*78
$GPGGA,090234.00,0204.23189,S,10604.73375,E,1,08,1.71,18.0,M,15.6,M,,*78
$GPGGA,090234.00,0204.23189,S,10604.73375,E,1,08,1.71,18.0,M,15.6,M,,*78
$GPGGA,090234.00,0204.23189,S,10604.73375,E,1,08,1.71,18.0,M,15.6,M,,*78
$GPGGA,090234.00,0204.23189,S,10604.73375,E,1,08,1.71,18.0,M,15.6,M,,*78
$GPGGA,090234.00,0204.23189,S,10604.73375,E,1,08,1.71,18.0,M,15.6,M,,*78
$GPGGA,090234.00,0204.23189,S,10604.73375,E,1,08,1.71,18.0,M,15.6,M,,*78
$GPGGA,090234.00,0204.23189,S,10604.73375,E,1,08,1.71,18.0,M,15.6,M,,*78
$GPGGA,090234.00,0204.23189,S,10604.73375,E,1,08,1.71,18.0,M,15.6,M,,*78
$GPGGA,090234.00,0204.23189,S,10604.73375,E,1,08,1.71,18.0,M,15.6,M,,*78
$GPGGA,090234.00,0204.23189,S,10604.73375,E,1,08,1.71,18.0,M,15.6,M,,*78
$GPGGA,090234.00,0204.23189,S,10604.73375,E,1,08,1.71,18.0,M,15.6,M,,*78
$GPGGA,090234.00,0204.23189,S,10604.73375,E,1,08,1.71,18.0,M,15.6,M,,*78
$GPGGA,090234.00,0204.23189,S,10604.73375,E,1,08,1.71,18.0,M,15.6,M,,*78
$GPGGA,090234.00,0204.23189,S,10604.73375,E,1,08,1.71,18.0,M,15.6,M,,*78
$GPGGA,090234.00,0204.23189,S,10604.73375,E,1,08,1.71,18.0,M,15.6,M,,*78
$GPGGA,090234.00,0204.23189,S,10604.73375,E,1,08,1.71,18.0,M,15.6,M,,*78
$GPGGA,090234.00,0204.23189,S,10604.73375,E,1,08,1.71,18.0,M,15.6,M,,*78
$GPGGA,090234.00,0204.23189,S,10604.73375,E,1,08,1.71,18.0,M,15.6,M,,*78
$GPGGA,090234.00,0204.23189,S,10604.73375,E,1,08,1.71,18.0,M,15.6,M,,*78
$GPGGA,090234.00,0204.23189,S,10604.73375,E,1,08,1.71,18.0,M,15.6,M,,*78
$GPGGA,090234.00,0204.23189,S,10604.73375,E,1,08,1.71,18.0,M,15.6,M,,*78
$GPGGA,090234.00,0204.23189,S,10604.73375,E,1,08,1.71,18.0,M,15.6,M,,*78
$GPGGA,090234.00,0204.23189,S,10604.73375,E,1,08,1.71,18.0,M,15.6,M,,*78
$GPGGA,090234.00,0204.23189,S,10604.73375,E,1,08,1.71,18.0,M,15.6,M,,*78
$GPGGA,090234.00,0204.23189,S,10604.73375,E,1,08,1.71,18.0,M,15.6,M,,*78
$GPGGA,090234.00,0204.23189,S,10604.73375,E,1,08,1.71,18.0,M,15.6,M,,*78
$GPGGA,090234.00,0204.23189,S,10604.73375,E,1,08,1.71,18.0,M,15.6,M,,*78
$GPGGA,090234.00,0204.23189,S,10604.73375,E,1,08,1.71,18.0,M,15.6,M,,*78
$GPGGA,090234.00,0204.23189,S,10604.73375,E,1,08,1.71,18.0,M,15.6,M,,*78
$GPGGA,090234.00,0204.23189,S,10604.73375,E,1,08,1.71,18.0,M,15.6,M,,*78
$GPGGA,090234.00,0204.23189,S,10604.73375,E,1,08,1.71,18.0,M,15.6,M,,*78
$GPGGA,090234.00,0204.23189,S,10604.73375,E,1,08,1.71,18.0,M,15.6,M,,*78
$GPGGA,090234.00,0204.23189,S,10604.73375,E,1,08,1.71,18.0,M,15.6,M,,*78
$GPGGA,090234.00,0204.23189,S,10604.73375,E,1,08,1.71,18.0,M,15.6,M,,*78
$GPGGA,090234.00,0204.23189,S,10604.73375,E,1,08,1.71,18.0,M,15.6,M,,*78
$GPGGA,090234.00,0204.23189,S,10604.73375,E,1,08,1.71,18.0,M,15.6,M,,*78
$GPGGA,090234.00,0204.23189,S,10604.73375,E,1,08,1.71,18.0,M,15.6,M,,*78
$GPGGA,090234.00,0204.23189,S,10604.73375,E,1,08,1.71,18.0,M,15.6,M,,*78
$GPGGA,090234.00,0204.23189,S,10604.73375,E,1,08,1.71,18.0,M,15.6,M,,*78
$GPGGA,090234.00,0204.23189,S,10604.73375,E,1,08,1.71,18.0,M,15.6,M,,*78
$GPGGA,090234.00,0204.23189,S,10604.73375,E,1,08,1.71,18.0,M,15.6,M,,*78
$GPGGA,090234.00,0204.23189,S,10604.73375,E,1,08,1.71,18.0,M,15.6,M,,*78
$GPGGA,090234.00,0204.23189,S,10604.73375,E,1,08,1.71,18.0,M,15.6,M,,*78
$GPGGA,090234.00,0204.23189,S,10604.73375,E,1,08,1.71,18.0,M,15.6,M,,*78
$GPGGA,090234.00,0204.23189,S,10604.73375,E,1,08,1.71,18.0,M,15.6,M,,*78
$GPGGA,090234.00,0204.23189,S,10604.73375,E,1,08,1.71,18.0,M,15.6,M,,*78
$GPGGA,090234.00,0204.23189,S,10604.73375,E,1,08,1.71,18.0,M,15.6,M,,*78
$GPGGA,090234.00,0204.23189,S,10604.73375,E,1,08,1.71,18.0,M,15.6,M,,*78
$GPGGA,090234.00,0204.23189,S,10604.73375,E,1,08,1.71,18.0,M,15.6,M,,*78
$GPGGA,090234.00,0204.23189,S,10604.73375,E,1,08,1.71,18.0,M,15.6,M,,*78
$GPGGA,090234.00,0204.23189,S,10604.73375,E,1,08,1.71,18.0,M,15.6,M,,*78
$GPGGA,090234.00,0204.23189,S,10604.73375,E,1,08,1.71,18.0,M,15.6,M,,*78
$GPGGA,090234.00,0204.23189,S,10604.73375,E,1,08,1.71,18.0,M,15.6,M,,*78
$GPGGA,090234.00,0204.23189,S,10604.73375,E,1,08,1.71,18.0,M,15.6,M,,*78
$GPGGA,090234.00,0204.23189,S,10604.73375,E,1,08,1.71,18.0,M,15.6,M,,*78
$GPGGA,090234.00,0204.23189,S,10604.73375,E,1,08,1.71,18.0,M,15.6,M,,*78
$GPGGA,090234.00,0204.23189,S,10604.73375,E,1,08,1.71,18.0,M,15.6,M,,*78
$GPGGA,090234.00,0204.23189,S,10604.73375,E,1,08,1.71,18.0,M,15.6,M,,*78
$GPGGA,090234.00,0204.23189,S,10604.73375,E,1,08,1.71,18.0,M,15.6,M,,*78
$GPGGA,090234.00,0204.23189,S,10604.73375,E,1,08,1.71,18.0,M,15.6,M,,*78
$GPGGA,090234.00,0204.23189,S,10604.73375,E,1,08,1.71,18.0,M,15.6,M,,*78
$GPGGA,090234.00,0204.23189,S,10604.73375,E,1,08,1.71,18.0,M,15.6,M,,*78
$GPGGA,090234.00,0204.23189,S,10604.73375,E,1,08,1.71,18.0,M,15.6,M,,*78
$GPGGA,090234.00,0204.23189,S,10604.73375,E,1,08,1.71,18.0,M,15.6,M,,*78
$GPGGA,090234.00,0204.23189,S,10604.73375,E,1,08,1.71,18.0,M,15.6,M,,*78
$GPGGA,090234.00,0204.23189,S,10604.73375,E,1,08,1.71,18.0,M,15.6,M,,*78
$GPGGA,090234.00,0204.23189,S,10604.73375,E,1,08,1.71,18.0,M,15.6,M,,*78
$GPGGA,090234.00,0204.23189,S,10604.73375,E,1,08,1.71,18.0,M,15.6,M,,*78
$GPGGA,090234.00,0204.23189,S,10604.73375,E,1,08,1.71,18.0,M,15.6,M,,*78
$GPRMC,090235.00,A,0204.23189,S,10604.73379,E,0.024,68.64,250924,,,A*4
!AIVDO,1,1,,,B000000001qILlwe2k8bswiTh588,0*7
!AIVDO,1,1,,,B000000001qILlwe2k8bswiTh588,0*7B
!AIVDO,1,1,,,B000000001qILlwe2k8bswiTh588,0*7B
!AIVDO,1,1,,,B000000001qILlwe2k8bswiTh588,0*7B
!AIVDO,1,1,,,B000000001qILlwe2k8bswiTh588,0*7B
!AIVDO,1,1,,,B000000001qILlwe2k8bswiTh588,0*7B
!AIVDO,1,1,,,B000000001qILlwe2k8bswiTh588,0*7B
!AIVDO,1,1,,,B000000001qILlwe2k8bswiTh588,0*7B
!AIVDO,1,1,,,B000000001qILlwe2k8bswiTh588,0*7B
!AIVDO,1,1,,,B000000001qILlwe2k8bswiTh588,0*7B
!AIVDO,1,1,,,B000000001qILlwe2k8bswiTh588,0*7B
!AIVDO,1,1,,,B000000001qILlwe2k8bswiTh588,0*7B
$GPGGA,090235.00,0204.23189,S,10604.73379,E,1,08,1.71,17.9,M,15.6,M,,*7
$GPGGA,090235.00,0204.23189,S,10604.73379,E,1,08,1.71,17.9,M,15.6,M,,*73
$GPGGA,090235.00,0204.23189,S,10604.73379,E,1,08,1.71,17.9,M,15.6,M,,*73
$GPGGA,090235.00,0204.23189,S,10604.73379,E,1,08,1.71,17.9,M,15.6,M,,*73
$GPGGA,090235.00,0204.23189,S,10604.73379,E,1,08,1.71,17.9,M,15.6,M,,*73
$GPGGA,090235.00,0204.23189,S,10604.73379,E,1,08,1.71,17.9,M,15.6,M,,*73
$GPGGA,090235.00,0204.23189,S,10604.73379,E,1,08,1.71,17.9,M,15.6,M,,*73
$GPGGA,090235.00,0204.23189,S,10604.73379,E,1,08,1.71,17.9,M,15.6,M,,*73
$GPGGA,090235.00,0204.23189,S,10604.73379,E,1,08,1.71,17.9,M,15.6,M,,*73
$GPGGA,090235.00,0204.23189,S,10604.73379,E,1,08,1.71,17.9,M,15.6,M,,*73
$GPGGA,090235.00,0204.23189,S,10604.73379,E,1,08,1.71,17.9,M,15.6,M,,*73
$GPGGA,090235.00,0204.23189,S,10604.73379,E,1,08,1.71,17.9,M,15.6,M,,*73
$GPGGA,090235.00,0204.23189,S,10604.73379,E,1,08,1.71,17.9,M,15.6,M,,*73
$GPGGA,090235.00,0204.23189,S,10604.73379,E,1,08,1.71,17.9,M,15.6,M,,*73
$GPGGA,090235.00,0204.23189,S,10604.73379,E,1,08,1.71,17.9,M,15.6,M,,*73
$GPGGA,090235.00,0204.23189,S,10604.73379,E,1,08,1.71,17.9,M,15.6,M,,*73
$GPGGA,090235.00,0204.23189,S,10604.73379,E,1,08,1.71,17.9,M,15.6,M,,*73
$GPGGA,090235.00,0204.23189,S,10604.73379,E,1,08,1.71,17.9,M,15.6,M,,*73
$GPGGA,090235.00,0204.23189,S,10604.73379,E,1,08,1.71,17.9,M,15.6,M,,*73
$GPGGA,090235.00,0204.23189,S,10604.73379,E,1,08,1.71,17.9,M,15.6,M,,*73
$GPGGA,090235.00,0204.23189,S,10604.73379,E,1,08,1.71,17.9,M,15.6,M,,*73
$GPGGA,090235.00,0204.23189,S,10604.73379,E,1,08,1.71,17.9,M,15.6,M,,*73
$GPGGA,090235.00,0204.23189,S,10604.73379,E,1,08,1.71,17.9,M,15.6,M,,*73
$GPGGA,090235.00,0204.23189,S,10604.73379,E,1,08,1.71,17.9,M,15.6,M,,*73
$GPGGA,090235.00,0204.23189,S,10604.73379,E,1,08,1.71,17.9,M,15.6,M,,*73
$GPGGA,090235.00,0204.23189,S,10604.73379,E,1,08,1.71,17.9,M,15.6,M,,*73
$GPGGA,090235.00,0204.23189,S,10604.73379,E,1,08,1.71,17.9,M,15.6,M,,*73
$GPGGA,090235.00,0204.23189,S,10604.73379,E,1,08,1.71,17.9,M,15.6,M,,*73
$GPGGA,090235.00,0204.23189,S,10604.73379,E,1,08,1.71,17.9,M,15.6,M,,*73
$GPGGA,090235.00,0204.23189,S,10604.73379,E,1,08,1.71,17.9,M,15.6,M,,*73
$GPGGA,090235.00,0204.23189,S,10604.73379,E,1,08,1.71,17.9,M,15.6,M,,*73
$GPGGA,090235.00,0204.23189,S,10604.73379,E,1,08,1.71,17.9,M,15.6,M,,*73
$GPGGA,090235.00,0204.23189,S,10604.73379,E,1,08,1.71,17.9,M,15.6,M,,*73
$GPGGA,090235.00,0204.23189,S,10604.73379,E,1,08,1.71,17.9,M,15.6,M,,*73
$GPGGA,090235.00,0204.23189,S,10604.73379,E,1,08,1.71,17.9,M,15.6,M,,*73
$GPGGA,090235.00,0204.23189,S,10604.73379,E,1,08,1.71,17.9,M,15.6,M,,*73
$GPGGA,090235.00,0204.23189,S,10604.73379,E,1,08,1.71,17.9,M,15.6,M,,*73
$GPGGA,090235.00,0204.23189,S,10604.73379,E,1,08,1.71,17.9,M,15.6,M,,*73
$GPGGA,090235.00,0204.23189,S,10604.73379,E,1,08,1.71,17.9,M,15.6,M,,*73
$GPGGA,090235.00,0204.23189,S,10604.73379,E,1,08,1.71,17.9,M,15.6,M,,*73
$GPGGA,090235.00,0204.23189,S,10604.73379,E,1,08,1.71,17.9,M,15.6,M,,*73
$GPGGA,090235.00,0204.23189,S,10604.73379,E,1,08,1.71,17.9,M,15.6,M,,*73
$GPGGA,090235.00,0204.23189,S,10604.73379,E,1,08,1.71,17.9,M,15.6,M,,*73
$GPGGA,090235.00,0204.23189,S,10604.73379,E,1,08,1.71,17.9,M,15.6,M,,*73
$GPGGA,090235.00,0204.23189,S,10604.73379,E,1,08,1.71,17.9,M,15.6,M,,*73
$GPGGA,090235.00,0204.23189,S,10604.73379,E,1,08,1.71,17.9,M,15.6,M,,*73
$GPGGA,090235.00,0204.23189,S,10604.73379,E,1,08,1.71,17.9,M,15.6,M,,*73
$GPGGA,090235.00,0204.23189,S,10604.73379,E,1,08,1.71,17.9,M,15.6,M,,*73
$GPGGA,090235.00,0204.23189,S,10604.73379,E,1,08,1.71,17.9,M,15.6,M,,*73
$GPGGA,090235.00,0204.23189,S,10604.73379,E,1,08,1.71,17.9,M,15.6,M,,*73
$GPGGA,090235.00,0204.23189,S,10604.73379,E,1,08,1.71,17.9,M,15.6,M,,*73
$GPGGA,090235.00,0204.23189,S,10604.73379,E,1,08,1.71,17.9,M,15.6,M,,*73
$GPGGA,090235.00,0204.23189,S,10604.73379,E,1,08,1.71,17.9,M,15.6,M,,*73
$GPGGA,090235.00,0204.23189,S,10604.73379,E,1,08,1.71,17.9,M,15.6,M,,*73
$GPGGA,090235.00,0204.23189,S,10604.73379,E,1,08,1.71,17.9,M,15.6,M,,*73
$GPGGA,090235.00,0204.23189,S,10604.73379,E,1,08,1.71,17.9,M,15.6,M,,*73
$GPGGA,090235.00,0204.23189,S,10604.73379,E,1,08,1.71,17.9,M,15.6,M,,*73
$GPGGA,090235.00,0204.23189,S,10604.73379,E,1,08,1.71,17.9,M,15.6,M,,*73
$GPGGA,090235.00,0204.23189,S,10604.73379,E,1,08,1.71,17.9,M,15.6,M,,*73
$GPGGA,090235.00,0204.23189,S,10604.73379,E,1,08,1.71,17.9,M,15.6,M,,*73
$GPGGA,090235.00,0204.23189,S,10604.73379,E,1,08,1.71,17.9,M,15.6,M,,*73
$GPGGA,090235.00,0204.23189,S,10604.73379,E,1,08,1.71,17.9,M,15.6,M,,*73
$GPGGA,090235.00,0204.23189,S,10604.73379,E,1,08,1.71,17.9,M,15.6,M,,*73
$GPGGA,090235.00,0204.23189,S,10604.73379,E,1,08,1.71,17.9,M,15.6,M,,*73
$GPGGA,090235.00,0204.23189,S,10604.73379,E,1,08,1.71,17.9,M,15.6,M,,*73
$GPGGA,090235.00,0204.23189,S,10604.73379,E,1,08,1.71,17.9,M,15.6,M,,*73
$GPGGA,090235.00,0204.23189,S,10604.73379,E,1,08,1.71,17.9,M,15.6,M,,*73
$GPGGA,090235.00,0204.23189,S,10604.73379,E,1,08,1.71,17.9,M,15.6,M,,*73
$GPGGA,090235.00,0204.23189,S,10604.73379,E,1,08,1.71,17.9,M,15.6,M,,*73
$GPGGA,090235.00,0204.23189,S,10604.73379,E,1,08,1.71,17.9,M,15.6,M,,*73
$GPGGA,090235.00,0204.23189,S,10604.73379,E,1,08,1.71,17.9,M,15.6,M,,*73
$GPGGA,090235.00,0204.23189,S,10604.73379,E,1,08,1.71,17.9,M,15.6,M,,*73
$GPGGA,090235.00,0204.23189,S,10604.73379,E,1,08,1.71,17.9,M,15.6,M,,*73
$GPGGA,090235.00,0204.23189,S,10604.73379,E,1,08,1.71,17.9,M,15.6,M,,*73
$GPGGA,090235.00,0204.23189,S,10604.73379,E,1,08,1.71,17.9,M,15.6,M,,*73
$GPGGA,090235.00,0204.23189,S,10604.73379,E,1,08,1.71,17.9,M,15.6,M,,*73
$GPGGA,090235.00,0204.23189,S,10604.73379,E,1,08,1.71,17.9,M,15.6,M,,*73
$GPGGA,090235.00,0204.23189,S,10604.73379,E,1,08,1.71,17.9,M,15.6,M,,*73
$GPGGA,090235.00,0204.23189,S,10604.73379,E,1,08,1.71,17.9,M,15.6,M,,*73
$GPGGA,090235.00,0204.23189,S,10604.73379,E,1,08,1.71,17.9,M,15.6,M,,*73
$GPGGA,090235.00,0204.23189,S,10604.73379,E,1,08,1.71,17.9,M,15.6,M,,*73
$GPGGA,090235.00,0204.23189,S,10604.73379,E,1,08,1.71,17.9,M,15.6,M,,*73
$GPRMC,090236.00,A,0204.23190,S,10604.73383,E,0.004,,250924,,,A*6
!AIVDO,1,1,,,B000000001qILmOe2k403wj4h588,0*3
!AIVDO,1,1,,,B000000001qILmOe2k403wj4h588,0*3F
!AIVDO,1,1,,,B000000001qILmOe2k403wj4h588,0*3F
!AIVDO,1,1,,,B000000001qILmOe2k403wj4h588,0*3F
!AIVDO,1,1,,,B000000001qILmOe2k403wj4h588,0*3F
!AIVDO,1,1,,,B000000001qILmOe2k403wj4h588,0*3F
!AIVDO,1,1,,,B000000001qILmOe2k403wj4h588,0*3F
!AIVDO,1,1,,,B000000001qILmOe2k403wj4h588,0*3F
!AIVDO,1,1,,,B000000001qILmOe2k403wj4h588,0*3F
!AIVDO,1,1,,,B000000001qILmOe2k403wj4h588,0*3F
!AIVDO,1,1,,,B000000001qILmOe2k403wj4h588,0*3F
!AIVDO,1,1,,,B000000001qILmOe2k403wj4h588,0*3F
$GPGGA,090236.00,0204.23190,S,10604.73383,E,1,08,1.71,17.8,M,15.6,M,,*7
$GPGGA,090236.00,0204.23190,S,10604.73383,E,1,08,1.71,17.8,M,15.6,M,,*7C
$GPGGA,090236.00,0204.23190,S,10604.73383,E,1,08,1.71,17.8,M,15.6,M,,*7C
$GPGGA,090236.00,0204.23190,S,10604.73383,E,1,08,1.71,17.8,M,15.6,M,,*7C
$GPGGA,090236.00,0204.23190,S,10604.73383,E,1,08,1.71,17.8,M,15.6,M,,*7C
$GPGGA,090236.00,0204.23190,S,10604.73383,E,1,08,1.71,17.8,M,15.6,M,,*7C
$GPGGA,090236.00,0204.23190,S,10604.73383,E,1,08,1.71,17.8,M,15.6,M,,*7C
$GPGGA,090236.00,0204.23190,S,10604.73383,E,1,08,1.71,17.8,M,15.6,M,,*7C
$GPGGA,090236.00,0204.23190,S,10604.73383,E,1,08,1.71,17.8,M,15.6,M,,*7C
$GPGGA,090236.00,0204.23190,S,10604.73383,E,1,08,1.71,17.8,M,15.6,M,,*7C
$GPGSA,A,3,28,26,10,32,31,27,23,16,,,,,2.60,1.71,1.96*0
$GPGSA,A,3,28,26,10,32,31,27,23,16,,,,,2.60,1.71,1.96*00
$GPGSA,A,3,28,26,10,32,31,27,23,16,,,,,2.60,1.71,1.96*00
$GPGSA,A,3,28,26,10,32,31,27,23,16,,,,,2.60,1.71,1.96*00
$GPGSA,A,3,28,26,10,32,31,27,23,16,,,,,2.60,1.71,1.96*00
$GPGSA,A,3,28,26,10,32,31,27,23,16,,,,,2.60,1.71,1.96*00
$GPGSA,A,3,28,26,10,32,31,27,23,16,,,,,2.60,1.71,1.96*00
$GPGSA,A,3,28,26,10,32,31,27,23,16,,,,,2.60,1.71,1.96*00
$GPGSA,A,3,28,26,10,32,31,27,23,16,,,,,2.60,1.71,1.96*00
$GPGSA,A,3,28,26,10,32,31,27,23,16,,,,,2.60,1.71,1.96*00
$GPGSA,A,3,28,26,10,32,31,27,23,16,,,,,2.60,1.71,1.96*00
$GPGSA,A,3,28,26,10,32,31,27,23,16,,,,,2.60,1.71,1.96*00
$GPGSA,A,3,28,26,10,32,31,27,23,16,,,,,2.60,1.71,1.96*00
$GPGSA,A,3,28,26,10,32,31,27,23,16,,,,,2.60,1.71,1.96*00
$GPGSV,3,1,12,28,17,015,44,26,68,343,45,10,52,160,44,32,40,057,46*7
$GPGSV,3,1,12,28,17,015,44,26,68,343,45,10,52,160,44,32,40,057,46*7B
$GPGSV,3,1,12,28,17,015,44,26,68,343,45,10,52,160,44,32,40,057,46*7B
$GPGSV,3,1,12,28,17,015,44,26,68,343,45,10,52,160,44,32,40,057,46*7B
$GPGSV,3,1,12,28,17,015,44,26,68,343,45,10,52,160,44,32,40,057,46*7B
$GPGSV,3,1,12,28,17,015,44,26,68,343,45,10,52,160,44,32,40,057,46*7B
$GPGSV,3,1,12,28,17,015,44,26,68,343,45,10,52,160,44,32,40,057,46*7B
$GPGSV,3,1,12,28,17,015,44,26,68,343,45,10,52,160,44,32,40,057,46*7B
$GPGSV,3,1,12,28,17,015,44,26,68,343,45,10,52,160,44,32,40,057,46*7B
$GPGSV,3,1,12,28,17,015,44,26,68,343,45,10,52,160,44,32,40,057,46*7B
$GPGSV,3,1,12,28,17,015,44,26,68,343,45,10,52,160,44,32,40,057,46*7B
$GPGSV,3,1,12,28,17,015,44,26,68,343,45,10,52,160,44,32,40,057,46*7B
$GPGSV,3,1,12,28,17,015,44,26,68,343,45,10,52,160,44,32,40,057,46*7B
$GPGSV,3,1,12,28,17,015,44,26,68,343,45,10,52,160,44,32,40,057,46*7B
$GPGSV,3,2,12,31,25,339,31,27,27,191,30,23,14,150,37,16,63,232,41*7
$GPGSV,3,2,12,31,25,339,31,27,27,191,30,23,14,150,37,16,63,232,41*7F
$GPGSV,3,2,12,31,25,339,31,27,27,191,30,23,14,150,37,16,63,232,41*7F
$GPGSV,3,2,12,31,25,339,31,27,27,191,30,23,14,150,37,16,63,232,41*7F
$GPGSV,3,2,12,31,25,339,31,27,27,191,30,23,14,150,37,16,63,232,41*7F
$GPGSV,3,2,12,31,25,339,31,27,27,191,30,23,14,150,37,16,63,232,41*7F
$GPGSV,3,2,12,31,25,339,31,27,27,191,30,23,14,150,37,16,63,232,41*7F
$GPGSV,3,2,12,31,25,339,31,27,27,191,30,23,14,150,37,16,63,232,41*7F
$GPGSV,3,2,12,31,25,339,31,27,27,191,30,23,14,150,37,16,63,232,41*7F
$GPGSV,3,2,12,31,25,339,31,27,27,191,30,23,14,150,37,16,63,232,41*7F
$GPGSV,3,2,12,31,25,339,31,27,27,191,30,23,14,150,37,16,63,232,41*7F
$GPGSV,3,3,12,21,10,256,,47,,,38,08,05,213,,29,04,065,*4
$GPGSV,3,3,12,21,10,256,,47,,,38,08,05,213,,29,04,065,*40
$GPGSV,3,3,12,21,10,256,,47,,,38,08,05,213,,29,04,065,*40
$GPGSV,3,3,12,21,10,256,,47,,,38,08,05,213,,29,04,065,*40
$GPGSV,3,3,12,21,10,256,,47,,,38,08,05,213,,29,04,065,*40
$GPGSV,3,3,12,21,10,256,,47,,,38,08,05,213,,29,04,065,*40
$GPGSV,3,3,12,21,10,256,,47,,,38,08,05,213,,29,04,065,*40
$GPGSV,3,3,12,21,10,256,,47,,,38,08,05,213,,29,04,065,*40
$GPGSV,3,3,12,21,10,256,,47,,,38,08,05,213,,29,04,065,*40
$GPGSV,3,3,12,21,10,256,,47,,,38,08,05,213,,29,04,065,*40
$GPGSV,3,3,12,21,10,256,,47,,,38,08,05,213,,29,04,065,*40
$GPGSV,3,3,12,21,10,256,,47,,,38,08,05,213,,29,04,065,*40
$GPGSV,3,3,12,21,10,256,,47,,,38,08,05,213,,29,04,065,*40
$GPGSV,3,3,12,21,10,256,,47,,,38,08,05,213,,29,04,065,*40
$GPGSV,3,3,12,21,10,256,,47,,,38,08,05,213,,29,04,065,*40
$GPGSV,3,3,12,21,10,256,,47,,,38,08,05,213,,29,04,065,*40
$GPGSV,3,3,12,21,10,256,,47,,,38,08,05,213,,29,04,065,*40
$GPGSV,3,3,12,21,10,256,,47,,,38,08,05,213,,29,04,065,*40
$GPGSV,3,3,12,21,10,256,,47,,,38,08,05,213,,29,04,065,*40
$GPGSV,3,3,12,21,10,256,,47,,,38,08,05,213,,29,04,065,*40
$GPGSV,3,3,12,21,10,256,,47,,,38,08,05,213,,29,04,065,*40
$GPGSV,3,3,12,21,10,256,,47,,,38,08,05,213,,29,04,065,*40
$GPGSV,3,3,12,21,10,256,,47,,,38,08,05,213,,29,04,065,*40
$GPGSV,3,3,12,21,10,256,,47,,,38,08,05,213,,29,04,065,*40
$GPGSV,3,3,12,21,10,256,,47,,,38,08,05,213,,29,04,065,*40
$GPGSV,3,3,12,21,10,256,,47,,,38,08,05,213,,29,04,065,*40
$GPGSV,3,3,12,21,10,256,,47,,,38,08,05,213,,29,04,065,*40
$GPGSV,3,3,12,21,10,256,,47,,,38,08,05,213,,29,04,065,*40
$GPGSV,3,3,12,21,10,256,,47,,,38,08,05,213,,29,04,065,*40
$GPGSV,3,3,12,21,10,256,,47,,,38,08,05,213,,29,04,065,*40
$GPGSV,3,3,12,21,10,256,,47,,,38,08,05,213,,29,04,065,*40
$GPRMC,090237.00,A,0204.23190,S,10604.73383,E,0.003,,250924,,,A*6
!AIVDO,1,1,,,B000000001qILmOe2k403wjTh588,0*5
!AIVDO,1,1,,,B000000001qILmOe2k403wjTh588,0*5F
!AIVDO,1,1,,,B000000001qILmOe2k403wjTh588,0*5F
!AIVDO,1,1,,,B000000001qILmOe2k403wjTh588,0*5F
!AIVDO,1,1,,,B000000001qILmOe2k403wjTh588,0*5F
!AIVDO,1,1,,,B000000001qILmOe2k403wjTh588,0*5F
!AIVDO,1,1,,,B000000001qILmOe2k403wjTh588,0*5F
!AIVDO,1,1,,,B000000001qILmOe2k403wjTh588,0*5F
!AIVDO,1,1,,,B000000001qILmOe2k403wjTh588,0*5F
!AIVDO,1,1,,,B000000001qILmOe2k403wjTh588,0*5F
!AIVDO,1,1,,,B000000001qILmOe2k403wjTh588,0*5F
!AIVDO,1,1,,,B000000001qILmOe2k403wjTh588,0*5F
!AIVDO,1,1,,,B000000001qILmOe2k403wjTh588,0*5F
$GPGGA,090237.00,0204.23190,S,10604.73383,E,1,08,1.36,17.7,M,15.6,M,,*7
$GPGGA,090237.00,0204.23190,S,10604.73383,E,1,08,1.36,17.7,M,15.6,M,,*71
$GPGGA,090237.00,0204.23190,S,10604.73383,E,1,08,1.36,17.7,M,15.6,M,,*71
$GPGGA,090237.00,0204.23190,S,10604.73383,E,1,08,1.36,17.7,M,15.6,M,,*71
$GPGGA,090237.00,0204.23190,S,10604.73383,E,1,08,1.36,17.7,M,15.6,M,,*71
$GPGGA,090237.00,0204.23190,S,10604.73383,E,1,08,1.36,17.7,M,15.6,M,,*71
$GPGGA,090237.00,0204.23190,S,10604.73383,E,1,08,1.36,17.7,M,15.6,M,,*71
$GPGGA,090237.00,0204.23190,S,10604.73383,E,1,08,1.36,17.7,M,15.6,M,,*71
$GPGGA,090237.00,0204.23190,S,10604.73383,E,1,08,1.36,17.7,M,15.6,M,,*71
$GPGGA,090237.00,0204.23190,S,10604.73383,E,1,08,1.36,17.7,M,15.6,M,,*71
$GPGGA,090237.00,0204.23190,S,10604.73383,E,1,08,1.36,17.7,M,15.6,M,,*71
$GPGGA,090237.00,0204.23190,S,10604.73383,E,1,08,1.36,17.7,M,15.6,M,,*71
$GPGGA,090237.00,0204.23190,S,10604.73383,E,1,08,1.36,17.7,M,15.6,M,,*71
$GPGGA,090237.00,0204.23190,S,10604.73383,E,1,08,1.36,17.7,M,15.6,M,,*71
$GPGGA,090237.00,0204.23190,S,10604.73383,E,1,08,1.36,17.7,M,15.6,M,,*71
$GPGGA,090237.00,0204.23190,S,10604.73383,E,1,08,1.36,17.7,M,15.6,M,,*71
$GPGGA,090237.00,0204.23190,S,10604.73383,E,1,08,1.36,17.7,M,15.6,M,,*71
$GPGGA,090237.00,0204.23190,S,10604.73383,E,1,08,1.36,17.7,M,15.6,M,,*71
$GPGGA,090237.00,0204.23190,S,10604.73383,E,1,08,1.36,17.7,M,15.6,M,,*71
$GPGGA,090237.00,0204.23190,S,10604.73383,E,1,08,1.36,17.7,M,15.6,M,,*71
$GPGGA,090237.00,0204.23190,S,10604.73383,E,1,08,1.36,17.7,M,15.6,M,,*71
$GPGGA,090237.00,0204.23190,S,10604.73383,E,1,08,1.36,17.7,M,15.6,M,,*71
$GPGGA,090237.00,0204.23190,S,10604.73383,E,1,08,1.36,17.7,M,15.6,M,,*71
$GPGGA,090237.00,0204.23190,S,10604.73383,E,1,08,1.36,17.7,M,15.6,M,,*71
$GPGGA,090237.00,0204.23190,S,10604.73383,E,1,08,1.36,17.7,M,15.6,M,,*71
$GPGGA,090237.00,0204.23190,S,10604.73383,E,1,08,1.36,17.7,M,15.6,M,,*71
$GPGGA,090237.00,0204.23190,S,10604.73383,E,1,08,1.36,17.7,M,15.6,M,,*71
$GPGGA,090237.00,0204.23190,S,10604.73383,E,1,08,1.36,17.7,M,15.6,M,,*71
$GPGGA,090237.00,0204.23190,S,10604.73383,E,1,08,1.36,17.7,M,15.6,M,,*71
$GPGGA,090237.00,0204.23190,S,10604.73383,E,1,08,1.36,17.7,M,15.6,M,,*71
$GPGGA,090237.00,0204.23190,S,10604.73383,E,1,08,1.36,17.7,M,15.6,M,,*71
$GPGGA,090237.00,0204.23190,S,10604.73383,E,1,08,1.36,17.7,M,15.6,M,,*71
$GPGGA,090237.00,0204.23190,S,10604.73383,E,1,08,1.36,17.7,M,15.6,M,,*71
$GPGGA,090237.00,0204.23190,S,10604.73383,E,1,08,1.36,17.7,M,15.6,M,,*71
$GPGGA,090237.00,0204.23190,S,10604.73383,E,1,08,1.36,17.7,M,15.6,M,,*71
$GPGGA,090237.00,0204.23190,S,10604.73383,E,1,08,1.36,17.7,M,15.6,M,,*71
$GPGGA,090237.00,0204.23190,S,10604.73383,E,1,08,1.36,17.7,M,15.6,M,,*71
$GPGGA,090237.00,0204.23190,S,10604.73383,E,1,08,1.36,17.7,M,15.6,M,,*71
$GPGGA,090237.00,0204.23190,S,10604.73383,E,1,08,1.36,17.7,M,15.6,M,,*71
$GPGGA,090237.00,0204.23190,S,10604.73383,E,1,08,1.36,17.7,M,15.6,M,,*71
$GPGGA,090237.00,0204.23190,S,10604.73383,E,1,08,1.36,17.7,M,15.6,M,,*71
$GPGGA,090237.00,0204.23190,S,10604.73383,E,1,08,1.36,17.7,M,15.6,M,,*71
$GPGGA,090237.00,0204.23190,S,10604.73383,E,1,08,1.36,17.7,M,15.6,M,,*71
$GPGGA,090237.00,0204.23190,S,10604.73383,E,1,08,1.36,17.7,M,15.6,M,,*71
$GPGGA,090237.00,0204.23190,S,10604.73383,E,1,08,1.36,17.7,M,15.6,M,,*71
$GPGGA,090237.00,0204.23190,S,10604.73383,E,1,08,1.36,17.7,M,15.6,M,,*71
$GPGGA,090237.00,0204.23190,S,10604.73383,E,1,08,1.36,17.7,M,15.6,M,,*71
$GPGGA,090237.00,0204.23190,S,10604.73383,E,1,08,1.36,17.7,M,15.6,M,,*71
$GPGGA,090237.00,0204.23190,S,10604.73383,E,1,08,1.36,17.7,M,15.6,M,,*71
$GPGGA,090237.00,0204.23190,S,10604.73383,E,1,08,1.36,17.7,M,15.6,M,,*71
$GPGGA,090237.00,0204.23190,S,10604.73383,E,1,08,1.36,17.7,M,15.6,M,,*71
$GPGGA,090237.00,0204.23190,S,10604.73383,E,1,08,1.36,17.7,M,15.6,M,,*71
$GPGGA,090237.00,0204.23190,S,10604.73383,E,1,08,1.36,17.7,M,15.6,M,,*71
$GPGGA,090237.00,0204.23190,S,10604.73383,E,1,08,1.36,17.7,M,15.6,M,,*71
$GPGGA,090237.00,0204.23190,S,10604.73383,E,1,08,1.36,17.7,M,15.6,M,,*71
$GPGGA,090237.00,0204.23190,S,10604.73383,E,1,08,1.36,17.7,M,15.6,M,,*71
$GPGGA,090237.00,0204.23190,S,10604.73383,E,1,08,1.36,17.7,M,15.6,M,,*71
$GPGGA,090237.00,0204.23190,S,10604.73383,E,1,08,1.36,17.7,M,15.6,M,,*71
$GPGGA,090237.00,0204.23190,S,10604.73383,E,1,08,1.36,17.7,M,15.6,M,,*71
$GPGGA,090237.00,0204.23190,S,10604.73383,E,1,08,1.36,17.7,M,15.6,M,,*71
$GPGGA,090237.00,0204.23190,S,10604.73383,E,1,08,1.36,17.7,M,15.6,M,,*71
$GPGGA,090237.00,0204.23190,S,10604.73383,E,1,08,1.36,17.7,M,15.6,M,,*71
$GPGGA,090237.00,0204.23190,S,10604.73383,E,1,08,1.36,17.7,M,15.6,M,,*71
$GPGGA,090237.00,0204.23190,S,10604.73383,E,1,08,1.36,17.7,M,15.6,M,,*71
$GPGGA,090237.00,0204.23190,S,10604.73383,E,1,08,1.36,17.7,M,15.6,M,,*71
$GPGGA,090237.00,0204.23190,S,10604.73383,E,1,08,1.36,17.7,M,15.6,M,,*71
$GPGGA,090237.00,0204.23190,S,10604.73383,E,1,08,1.36,17.7,M,15.6,M,,*71
$GPGGA,090237.00,0204.23190,S,10604.73383,E,1,08,1.36,17.7,M,15.6,M,,*71
$GPGGA,090237.00,0204.23190,S,10604.73383,E,1,08,1.36,17.7,M,15.6,M,,*71
$GPGGA,090237.00,0204.23190,S,10604.73383,E,1,08,1.36,17.7,M,15.6,M,,*71
$GPGGA,090237.00,0204.23190,S,10604.73383,E,1,08,1.36,17.7,M,15.6,M,,*71
$GPGGA,090237.00,0204.23190,S,10604.73383,E,1,08,1.36,17.7,M,15.6,M,,*71
$GPGGA,090237.00,0204.23190,S,10604.73383,E,1,08,1.36,17.7,M,15.6,M,,*71
$GPGGA,090237.00,0204.23190,S,10604.73383,E,1,08,1.36,17.7,M,15.6,M,,*71
$GPGGA,090237.00,0204.23190,S,10604.73383,E,1,08,1.36,17.7,M,15.6,M,,*71
$GPGGA,090237.00,0204.23190,S,10604.73383,E,1,08,1.36,17.7,M,15.6,M,,*71
$GPGGA,090237.00,0204.23190,S,10604.73383,E,1,08,1.36,17.7,M,15.6,M,,*71
$GPGGA,090237.00,0204.23190,S,10604.73383,E,1,08,1.36,17.7,M,15.6,M,,*71
$GPGGA,090237.00,0204.23190,S,10604.73383,E,1,08,1.36,17.7,M,15.6,M,,*71
$GPGGA,090237.00,0204.23190,S,10604.73383,E,1,08,1.36,17.7,M,15.6,M,,*71
$GPGGA,090237.00,0204.23190,S,10604.73383,E,1,08,1.36,17.7,M,15.6,M,,*71
$GPGGA,090237.00,0204.23190,S,10604.73383,E,1,08,1.36,17.7,M,15.6,M,,*71
$GPGGA,090237.00,0204.23190,S,10604.73383,E,1,08,1.36,17.7,M,15.6,M,,*71
$GPGGA,090237.00,0204.23190,S,10604.73383,E,1,08,1.36,17.7,M,15.6,M,,*71
$GPRMC,090238.00,A,0204.23188,S,10604.73381,E,0.018,,250924,,,A*6
!AIVDO,1,1,,,B000000001qILmOe2k803wk4h588,0*3
!AIVDO,1,1,,,B000000001qILmOe2k803wk4h588,0*32
!AIVDO,1,1,,,B000000001qILmOe2k803wk4h588,0*32
!AIVDO,1,1,,,B000000001qILmOe2k803wk4h588,0*32
!AIVDO,1,1,,,B000000001qILmOe2k803wk4h588,0*32
!AIVDO,1,1,,,B000000001qILmOe2k803wk4h588,0*32
!AIVDO,1,1,,,B000000001qILmOe2k803wk4h588,0*32
!AIVDO,1,1,,,B000000001qILmOe2k803wk4h588,0*32
!AIVDO,1,1,,,B000000001qILmOe2k803wk4h588,0*32
!AIVDO,1,1,,,B000000001qILmOe2k803wk4h588,0*32
!AIVDO,1,1,,,B000000001qILmOe2k803wk4h588,0*32
!AIVDO,1,1,,,B000000001qILmOe2k803wk4h588,0*32
$GPGGA,090238.00,0204.23188,S,10604.73381,E,1,08,1.36,17.6,M,15.6,M,,*7
$GPGGA,090238.00,0204.23188,S,10604.73381,E,1,08,1.36,17.6,M,15.6,M,,*74
$GPGGA,090238.00,0204.23188,S,10604.73381,E,1,08,1.36,17.6,M,15.6,M,,*74
$GPGGA,090238.00,0204.23188,S,10604.73381,E,1,08,1.36,17.6,M,15.6,M,,*74
$GPGGA,090238.00,0204.23188,S,10604.73381,E,1,08,1.36,17.6,M,15.6,M,,*74
$GPGGA,090238.00,0204.23188,S,10604.73381,E,1,08,1.36,17.6,M,15.6,M,,*74
$GPGGA,090238.00,0204.23188,S,10604.73381,E,1,08,1.36,17.6,M,15.6,M,,*74
$GPGGA,090238.00,0204.23188,S,10604.73381,E,1,08,1.36,17.6,M,15.6,M,,*74
$GPGGA,090238.00,0204.23188,S,10604.73381,E,1,08,1.36,17.6,M,15.6,M,,*74
$GPGGA,090238.00,0204.23188,S,10604.73381,E,1,08,1.36,17.6,M,15.6,M,,*74
$GPGGA,090238.00,0204.23188,S,10604.73381,E,1,08,1.36,17.6,M,15.6,M,,*74
$GPGGA,090238.00,0204.23188,S,10604.73381,E,1,08,1.36,17.6,M,15.6,M,,*74
$GPGGA,090238.00,0204.23188,S,10604.73381,E,1,08,1.36,17.6,M,15.6,M,,*74
$GPGGA,090238.00,0204.23188,S,10604.73381,E,1,08,1.36,17.6,M,15.6,M,,*74
$GPGGA,090238.00,0204.23188,S,10604.73381,E,1,08,1.36,17.6,M,15.6,M,,*74
$GPGGA,090238.00,0204.23188,S,10604.73381,E,1,08,1.36,17.6,M,15.6,M,,*74
$GPGGA,090238.00,0204.23188,S,10604.73381,E,1,08,1.36,17.6,M,15.6,M,,*74
$GPGGA,090238.00,0204.23188,S,10604.73381,E,1,08,1.36,17.6,M,15.6,M,,*74
$GPGGA,090238.00,0204.23188,S,10604.73381,E,1,08,1.36,17.6,M,15.6,M,,*74
$GPGGA,090238.00,0204.23188,S,10604.73381,E,1,08,1.36,17.6,M,15.6,M,,*74
$GPGGA,090238.00,0204.23188,S,10604.73381,E,1,08,1.36,17.6,M,15.6,M,,*74
$GPGGA,090238.00,0204.23188,S,10604.73381,E,1,08,1.36,17.6,M,15.6,M,,*74
$GPGGA,090238.00,0204.23188,S,10604.73381,E,1,08,1.36,17.6,M,15.6,M,,*74
$GPGGA,090238.00,0204.23188,S,10604.73381,E,1,08,1.36,17.6,M,15.6,M,,*74
$GPGGA,090238.00,0204.23188,S,10604.73381,E,1,08,1.36,17.6,M,15.6,M,,*74
$GPGGA,090238.00,0204.23188,S,10604.73381,E,1,08,1.36,17.6,M,15.6,M,,*74
$GPGGA,090238.00,0204.23188,S,10604.73381,E,1,08,1.36,17.6,M,15.6,M,,*74
$GPGGA,090238.00,0204.23188,S,10604.73381,E,1,08,1.36,17.6,M,15.6,M,,*74
$GPGGA,090238.00,0204.23188,S,10604.73381,E,1,08,1.36,17.6,M,15.6,M,,*74
$GPGGA,090238.00,0204.23188,S,10604.73381,E,1,08,1.36,17.6,M,15.6,M,,*74
$GPGGA,090238.00,0204.23188,S,10604.73381,E,1,08,1.36,17.6,M,15.6,M,,*74
$GPGGA,090238.00,0204.23188,S,10604.73381,E,1,08,1.36,17.6,M,15.6,M,,*74
$GPGGA,090238.00,0204.23188,S,10604.73381,E,1,08,1.36,17.6,M,15.6,M,,*74
$GPGGA,090238.00,0204.23188,S,10604.73381,E,1,08,1.36,17.6,M,15.6,M,,*74
$GPGGA,090238.00,0204.23188,S,10604.73381,E,1,08,1.36,17.6,M,15.6,M,,*74
$GPGGA,090238.00,0204.23188,S,10604.73381,E,1,08,1.36,17.6,M,15.6,M,,*74
$GPGGA,090238.00,0204.23188,S,10604.73381,E,1,08,1.36,17.6,M,15.6,M,,*74
$GPGGA,090238.00,0204.23188,S,10604.73381,E,1,08,1.36,17.6,M,15.6,M,,*74
$GPGGA,090238.00,0204.23188,S,10604.73381,E,1,08,1.36,17.6,M,15.6,M,,*74
$GPGGA,090238.00,0204.23188,S,10604.73381,E,1,08,1.36,17.6,M,15.6,M,,*74
$GPGGA,090238.00,0204.23188,S,10604.73381,E,1,08,1.36,17.6,M,15.6,M,,*74
$GPGGA,090238.00,0204.23188,S,10604.73381,E,1,08,1.36,17.6,M,15.6,M,,*74
$GPGGA,090238.00,0204.23188,S,10604.73381,E,1,08,1.36,17.6,M,15.6,M,,*74
$GPGGA,090238.00,0204.23188,S,10604.73381,E,1,08,1.36,17.6,M,15.6,M,,*74
$GPGGA,090238.00,0204.23188,S,10604.73381,E,1,08,1.36,17.6,M,15.6,M,,*74
$GPGGA,090238.00,0204.23188,S,10604.73381,E,1,08,1.36,17.6,M,15.6,M,,*74
$GPGGA,090238.00,0204.23188,S,10604.73381,E,1,08,1.36,17.6,M,15.6,M,,*74
$GPGGA,090238.00,0204.23188,S,10604.73381,E,1,08,1.36,17.6,M,15.6,M,,*74
$GPGGA,090238.00,0204.23188,S,10604.73381,E,1,08,1.36,17.6,M,15.6,M,,*74
$GPGGA,090238.00,0204.23188,S,10604.73381,E,1,08,1.36,17.6,M,15.6,M,,*74
$GPGGA,090238.00,0204.23188,S,10604.73381,E,1,08,1.36,17.6,M,15.6,M,,*74
$GPGGA,090238.00,0204.23188,S,10604.73381,E,1,08,1.36,17.6,M,15.6,M,,*74
$GPGGA,090238.00,0204.23188,S,10604.73381,E,1,08,1.36,17.6,M,15.6,M,,*74
$GPGGA,090238.00,0204.23188,S,10604.73381,E,1,08,1.36,17.6,M,15.6,M,,*74
$GPGGA,090238.00,0204.23188,S,10604.73381,E,1,08,1.36,17.6,M,15.6,M,,*74
$GPGGA,090238.00,0204.23188,S,10604.73381,E,1,08,1.36,17.6,M,15.6,M,,*74
$GPGGA,090238.00,0204.23188,S,10604.73381,E,1,08,1.36,17.6,M,15.6,M,,*74
$GPGGA,090238.00,0204.23188,S,10604.73381,E,1,08,1.36,17.6,M,15.6,M,,*74
$GPGGA,090238.00,0204.23188,S,10604.73381,E,1,08,1.36,17.6,M,15.6,M,,*74